{
    "results": [
 
        {
            "name": "Aeródromo - Paraquedismo, Paramotor",
            "lat": 39.73194531795763,
            "long": -7.875864380123518
        },
        {
            "name": "Anta do Cão do Ribeiro",
            "lat": 39.72113611111112,
            "long": -7.874483333333335
        },
        {
            "name": "Anta do Vale do Alvito",
            "lat": 39.71895277777778,
            "long": -7.862858333333334
        },
      
        {
            "name": "Buraca da Moura",
            "lat": 39.77533296660155,
            "long": -7.779986165843329
        },
        {
            "name": "Cabeço dos 3 Marcos",
            "lat": 39.86745269077787,
            "long": -7.849741068607311
        },
        {
            "name": "Campo de Tiro",
            "lat": 39.70322395540358,
            "long": -7.800002350482998
        },
      
        {
            "name": "CCV da Floresta",
            "lat": 39.73351341446688,
            "long": -7.87613640921717
        },
       
        {
            "name": "Espaço Manuel Ribeiro - Carregais",
            "lat": 39.76290949596309,
            "long": -7.759157620944188
        },
       
        {
            "name": "Figueira - Aldeia de Xisto",
            "lat": 39.75159922807396,
            "long": -7.852144227302462
        },
        {
            "name": "Fortes e Baterias da Catraia",
            "lat": 39.79925771866002,
            "long": -7.764689860418984
        },
        {
            "name": "Genebra",
            "lat": 46.20900413370136,
            "long": 6.165162428530946
        },
               
        {
            "name": "Picoto do Vergão",
            "lat": 39.75153773493862,
            "long": -7.995107054368659
        },
        
        {
            "name": "Miradouro Geomorfológico das Corgas",
            "lat": 39.79839444444444,
            "long": -7.893119166666666
        },
        
        {
            "name": "Moinho de Vento do Pergulho",
            "lat": 39.68948438507186,
            "long": -7.898575941387764
        },
             
        {
            "name": "Montes da Senhora - Oliveira centenária",
            "lat": 39.77539499338536,
            "long": -7.803328527594319
        },
        
        {
            "name": "Oficina da Tigelada",
            "lat": 39.68554998031314,
            "long": -7.892223781945377
        },
                    
        {
            "name": "Penha do Falcão",
            "lat": 39.80404364103037,
            "long": -7.821895178986235
        },
        
        {
            "name": "Peral",
            "lat": 39.69098750366553,
            "long": -7.801522084538188
        },
        
        {
            "name": "Picoto da Espadana",
            "lat": 39.81917472222223,
            "long": -7.8802525
        },
        
        {
            "name": "Picoto Rainho",
            "lat": 39.83037447425928,
            "long": -7.927601925721659
        },
        
        {
            "name": "Ponte do Alvito",
            "lat": 39.80027453905787,
            "long": -7.760451080126
        },
        
        {
            "name": "Ponte Romana da Pracana",
            "lat": 39.62445383790824,
            "long": -7.850336828528587
        },
              
        {
            "name": "Portas do Almourão - Parede de Escalada",
            "lat": 39.73530555555556,
            "long": -7.748805555555555
        },
        
        {
            "name": "Praia Fluvial da Aldeia Ruiva",
            "lat": 39.7692930363375,
            "long": -7.981016895610558
        },
        
        {
            "name": "Praia Fluvial da Couca",
            "lat": 39.81433081722575,
            "long": -7.755046753101116
        },
        
        {
            "name": "Praia Fluvial da Fróia",
            "lat": 39.78906244074936,
            "long": -7.83785064155319
        },
        
        {
            "name": "Praia Fluvial do Alvito da Beira",
            "lat": 39.82426630405913,
            "long": -7.797753962870417
        },
        
        {
            "name": "Praia Fluvial do Malhadal",
            "lat": 39.79744121680459,
            "long": -7.951286391648058
        },
        
        {
            "name": "Proença-a-Nova - Roteiro de Artes, Capela da Misericórdia",
            "lat": 39.75077601900526,
            "long": -7.919389907933881
        },
        
        {
            "name": "Ribeira do Alvito",
            "lat": 39.77628709921572,
            "long": -7.694318872835023
        },
        
        {
            "name": "Rio Ocreza",
            "lat": 39.77548479069063,
            "long": -7.733570379237812
        },
                           
        {
            "name": "Sobreira Formosa - Museu Isilda Martins",
            "lat": 39.77131976756416,
            "long": -7.840406038039224
        }        
    ]
}
        
            


        
    
