{
   "html_attributions" : [],
   "next_page_token" : "CqQCFwEAAC6xkTr7O9CG9xVMoY0cYiVLl533l6D97Rj6yl3r_7JSQFgdyQr6R-YxEWYIfLVnczr0V_WL1grwsp_6X2gY4RFCZzkFi9kzAcwpWmvPESd3ML3fcZ3XgJEn_fqVgbrcQauTGRH0Q9FcSHT6FrsAS_qh9XBLLFv_M8sqHM-bQkL8hjFSwRD8CZzWEwk7cX6om1B49uDfHAZO_AGnZ1_2KXZtFWgcd5uS1q8O4oIGStWP95abjId8fBlGTP4LXLmfaSZPD_9X9WOibfKAFpZb4k2dcwrmOafvGuBsgKDD5JCfc1c4gddz8zetnazwj9FVQeGdywCmKxSij9zbpkSGd83fLssTiT5czMoq2xUn6BEyVt-wAVVxr_DoWzJ2mSZRCRIQT4uN4TVB17t8gFQzUzOLNBoU1egmHBNOnP0S6g5A6hHXcg6bRoQ",
   "results" : [
      {
         "geometry" : {
            "location" : {
               "lat" : 39.8197117,
               "lng" : -7.496466200000002
            },
            "viewport" : {
               "northeast" : {
                  "lat" : 39.9093461,
                  "lng" : -7.367089999999999
               },
               "southwest" : {
                  "lat" : 39.7136873,
                  "lng" : -7.5591241
               }
            }
         },
         "icon" : "https://maps.gstatic.com/mapfiles/place_api/icons/geocode-71.png",
         "id" : "445416ae195395f8079543a00e412e1e31d3f5ce",
         "name" : "Castelo Branco",
         "photos" : [
            {
               "height" : 4000,
               "html_attributions" : [
                  "\u003ca href=\"https://maps.google.com/maps/contrib/117650986318739740470/photos\"\u003eTiago André\u003c/a\u003e"
               ],
               "photo_reference" : "CmRaAAAA6QEEWvHuFSp4w-mA9FErVkhkqYVew_XaOfFzaqERQzvEtjdRacybvGdY4jp5KmDUTnUQYnu0I7lE8fbY3lGfuWyn8uYRy_gXcRI8ce6QL7P1uxqeN9nb7jR9PWBovuttEhAdUlP918vuoDIVWZ_GEBENGhQkP_D0My69phwaBfVSUl_hfWh8-A",
               "width" : 6000
            }
         ],
         "place_id" : "ChIJ23-QlShcPQ0RQB67VSpqcBw",
         "reference" : "ChIJ23-QlShcPQ0RQB67VSpqcBw",
         "scope" : "GOOGLE",
         "types" : [ "locality", "political" ],
         "vicinity" : "Castelo Branco"
      },
      {
         "geometry" : {
            "location" : {
               "lat" : 39.8174705,
               "lng" : -7.4863909
            },
            "viewport" : {
               "northeast" : {
                  "lat" : 39.8187868802915,
                  "lng" : -7.485001619708497
               },
               "southwest" : {
                  "lat" : 39.8160889197085,
                  "lng" : -7.487699580291502
               }
            }
         },
         "icon" : "https://maps.gstatic.com/mapfiles/place_api/icons/school-71.png",
         "id" : "b5b7dae23a477211cb3af5d5b4e9075050a39069",
         "name" : "ETEap - Escola Tecnológica e Profissional Albicastrense Lda",
         "photos" : [
            {
               "height" : 2448,
               "html_attributions" : [
                  "\u003ca href=\"https://maps.google.com/maps/contrib/100020626240330304315/photos\"\u003eHugo Amaral\u003c/a\u003e"
               ],
               "photo_reference" : "CmRaAAAA5SLWpl92lIRmXsuJjpDGToj25FYQ6GfE-_8eqURmbHFgtY_gmljDrtNmm7FPE6vaN5IqtsW7abPSqQmuA_6p-hIO2sD8Qp0XvbMrx9_dj_kaM_2PbqQQEB832sEI7ZdKEhAOPyxXjlZjwRHcvqLEcU2aGhTpd-j3JWQihfycEEUSBnlGXHKxEg",
               "width" : 3264
            }
         ],
         "place_id" : "ChIJgxRvWoFePQ0RPDowvqqovN4",
         "plus_code" : {
            "compound_code" : "RG87+XC Castelo Branco, Portugal",
            "global_code" : "8CFJRG87+XC"
         },
         "rating" : 4.5,
         "reference" : "ChIJgxRvWoFePQ0RPDowvqqovN4",
         "scope" : "GOOGLE",
         "types" : [ "school", "point_of_interest", "establishment" ],
         "vicinity" : "Rua Frei Manuel da Rocha 1"
      },
      {
         "geometry" : {
            "location" : {
               "lat" : 39.8130739,
               "lng" : -7.482816
            },
            "viewport" : {
               "northeast" : {
                  "lat" : 39.8144228802915,
                  "lng" : -7.481467019708497
               },
               "southwest" : {
                  "lat" : 39.8117249197085,
                  "lng" : -7.484164980291502
               }
            }
         },
         "icon" : "https://maps.gstatic.com/mapfiles/place_api/icons/lodging-71.png",
         "id" : "ad666b936faeec1f13974082cdf5e94d025499ef",
         "name" : "Studio Castelo",
         "place_id" : "ChIJBesXwIdePQ0RaThgkW8vPHI",
         "plus_code" : {
            "compound_code" : "RG78+6V Castelo Branco, Portugal",
            "global_code" : "8CFJRG78+6V"
         },
         "reference" : "ChIJBesXwIdePQ0RaThgkW8vPHI",
         "scope" : "GOOGLE",
         "types" : [ "lodging", "point_of_interest", "establishment" ],
         "vicinity" : "Caminho do castelo 167B, Castelo Branco, Horta"
      },
      {
         "geometry" : {
            "location" : {
               "lat" : 39.817242,
               "lng" : -7.485707000000001
            },
            "viewport" : {
               "northeast" : {
                  "lat" : 39.8185909802915,
                  "lng" : -7.484358019708498
               },
               "southwest" : {
                  "lat" : 39.8158930197085,
                  "lng" : -7.487055980291502
               }
            }
         },
         "icon" : "https://maps.gstatic.com/mapfiles/place_api/icons/generic_business-71.png",
         "id" : "6dc80f5c724539fcba4bc26e7862a46170e584f0",
         "name" : "Talenter™ Castelo Branco",
         "opening_hours" : {
            "open_now" : false
         },
         "place_id" : "ChIJjwAaSYFePQ0RJwlwRgj6MJ4",
         "plus_code" : {
            "compound_code" : "RG87+VP Castelo Branco, Portugal",
            "global_code" : "8CFJRG87+VP"
         },
         "rating" : 4.4,
         "reference" : "ChIJjwAaSYFePQ0RJwlwRgj6MJ4",
         "scope" : "GOOGLE",
         "types" : [ "point_of_interest", "establishment" ],
         "vicinity" : "Avenida da Carapalha, N.º 35, Lote 72, R/C D, Castelo Branco"
      },
      {
         "geometry" : {
            "location" : {
               "lat" : 39.817626,
               "lng" : -7.485798000000001
            },
            "viewport" : {
               "northeast" : {
                  "lat" : 39.8189749802915,
                  "lng" : -7.484449019708499
               },
               "southwest" : {
                  "lat" : 39.8162770197085,
                  "lng" : -7.487146980291503
               }
            }
         },
         "icon" : "https://maps.gstatic.com/mapfiles/place_api/icons/shopping-71.png",
         "id" : "040ea626e18c5f78017a0eca4b1b52d7581078e7",
         "name" : "Farmácia Salavessa",
         "opening_hours" : {
            "open_now" : false
         },
         "photos" : [
            {
               "height" : 5312,
               "html_attributions" : [
                  "\u003ca href=\"https://maps.google.com/maps/contrib/116596417958125608293/photos\"\u003eGraca Moreira\u003c/a\u003e"
               ],
               "photo_reference" : "CmRaAAAAtROABD_jEsA0PyhiEXmH0VFPVy8rKm75rL4vt5BTUW825W8r58uTOL90NYYjrL4ot7Jb8uZ1dwSDBarPDP4uy6Pzphx6LiDHmnDfYoxoY2AjzKZspHPiCu5nx-NuW_8VEhA5Cv2K91He81DLQg0XpLS-GhRhYb35dS6rY3dM8Q7-jS5JTGPVAQ",
               "width" : 2988
            }
         ],
         "place_id" : "ChIJmQqDRoFePQ0R8vfC_y0jiYM",
         "plus_code" : {
            "compound_code" : "RG97+3M Castelo Branco, Portugal",
            "global_code" : "8CFJRG97+3M"
         },
         "rating" : 4.5,
         "reference" : "ChIJmQqDRoFePQ0R8vfC_y0jiYM",
         "scope" : "GOOGLE",
         "types" : [ "pharmacy", "store", "health", "point_of_interest", "establishment" ],
         "vicinity" : "Avenida da Carapalha lot 37 nº 38, Castelo Branco"
      },
      {
         "geometry" : {
            "location" : {
               "lat" : 39.815702,
               "lng" : -7.484863000000001
            },
            "viewport" : {
               "northeast" : {
                  "lat" : 39.81705058029149,
                  "lng" : -7.483452769708498
               },
               "southwest" : {
                  "lat" : 39.81435261970849,
                  "lng" : -7.486150730291503
               }
            }
         },
         "icon" : "https://maps.gstatic.com/mapfiles/place_api/icons/generic_business-71.png",
         "id" : "372ace68a6ae8825fcfdc12438bcd7417ce5e8a8",
         "name" : "MIR - Informática e Serviços Lda",
         "opening_hours" : {
            "open_now" : false
         },
         "photos" : [
            {
               "height" : 1152,
               "html_attributions" : [
                  "\u003ca href=\"https://maps.google.com/maps/contrib/111481175878818785301/photos\"\u003eMIR - Informática e Serviços Lda\u003c/a\u003e"
               ],
               "photo_reference" : "CmRaAAAAdU06WQolPDQ4_0ubfpdzzz_HvIjANhzajElE1nsybprEn9swnfVgG1YJoGjsLu-54QaE2FJZa7II92i58LqjM2QlxCCr27oUfbZTvszBEx78_YhBFFEq62Tm1tgzyY8KEhAIC4v3xRQ3TxNclPNfUCnTGhR1P0_8BM5cnjzkVPQ4-7_rnMPYiA",
               "width" : 2048
            }
         ],
         "place_id" : "ChIJ053TMIJePQ0RNiLsLRSzsaw",
         "rating" : 5,
         "reference" : "ChIJ053TMIJePQ0RNiLsLRSzsaw",
         "scope" : "GOOGLE",
         "types" : [ "point_of_interest", "establishment" ],
         "vicinity" : "Avenida da Carapalha 15"
      },
      {
         "geometry" : {
            "location" : {
               "lat" : 39.8156192,
               "lng" : -7.484829299999999
            },
            "viewport" : {
               "northeast" : {
                  "lat" : 39.8169681802915,
                  "lng" : -7.483480319708496
               },
               "southwest" : {
                  "lat" : 39.8142702197085,
                  "lng" : -7.486178280291501
               }
            }
         },
         "icon" : "https://maps.gstatic.com/mapfiles/place_api/icons/shopping-71.png",
         "id" : "39c242c40fc10cb94a5feb1fb02ae4539b3822d5",
         "name" : "Chip7",
         "photos" : [
            {
               "height" : 4032,
               "html_attributions" : [
                  "\u003ca href=\"https://maps.google.com/maps/contrib/105681125987373415833/photos\"\u003eOliveira Patricia\u003c/a\u003e"
               ],
               "photo_reference" : "CmRaAAAACOW1-Gm9QeN2yBr-tYwhJE8Yu7aA-4rpIYdNAzIaZcGyrRs-uAwKhxnHLdDzL4aCOXC0CJv0aut3UPq6_8roG5ISKKcg28Dse33CUkOwMYDYBfzea0iKH-brRKssUjY3EhAeogH4HmUIvTvDS3N5jmBXGhRsaQUqimEO4ET9HD8eU82PaIdKEg",
               "width" : 3024
            }
         ],
         "place_id" : "ChIJzQITXIFePQ0RNfaGs_qT9CA",
         "plus_code" : {
            "compound_code" : "RG88+63 Castelo Branco, Portugal",
            "global_code" : "8CFJRG88+63"
         },
         "rating" : 4.6,
         "reference" : "ChIJzQITXIFePQ0RNfaGs_qT9CA",
         "scope" : "GOOGLE",
         "types" : [ "electronics_store", "store", "point_of_interest", "establishment" ],
         "vicinity" : "Av. Da Carapalha, 15 R/C, Castelo Branco"
      },
      {
         "geometry" : {
            "location" : {
               "lat" : 39.81674999999999,
               "lng" : -7.484582899999998
            },
            "viewport" : {
               "northeast" : {
                  "lat" : 39.81809898029149,
                  "lng" : -7.483233919708495
               },
               "southwest" : {
                  "lat" : 39.81540101970849,
                  "lng" : -7.4859318802915
               }
            }
         },
         "icon" : "https://maps.gstatic.com/mapfiles/place_api/icons/generic_business-71.png",
         "id" : "0e8ac3d11fd3defab85e7d1845add1c417ec7ef7",
         "name" : "CMVS-PROJECTOS DE ENGENHARIA, LDA.",
         "opening_hours" : {
            "open_now" : false
         },
         "place_id" : "ChIJv_P8MoFePQ0RkaVDkEpJutI",
         "plus_code" : {
            "compound_code" : "RG88+P5 Castelo Branco, Portugal",
            "global_code" : "8CFJRG88+P5"
         },
         "reference" : "ChIJv_P8MoFePQ0RkaVDkEpJutI",
         "scope" : "GOOGLE",
         "types" : [ "general_contractor", "point_of_interest", "establishment" ],
         "vicinity" : "Av. da Carapalha Nº30, Loja 1, Castelo Branco"
      },
      {
         "geometry" : {
            "location" : {
               "lat" : 39.81801509999999,
               "lng" : -7.4844076
            },
            "viewport" : {
               "northeast" : {
                  "lat" : 39.81936408029149,
                  "lng" : -7.483058619708498
               },
               "southwest" : {
                  "lat" : 39.81666611970849,
                  "lng" : -7.485756580291501
               }
            }
         },
         "icon" : "https://maps.gstatic.com/mapfiles/place_api/icons/shopping-71.png",
         "id" : "53f31427735271225d95b577e2efd85eba8fec3b",
         "name" : "Manteiga Voadora",
         "place_id" : "ChIJaxZPPYFePQ0R8x4IovmJQpk",
         "reference" : "ChIJaxZPPYFePQ0R8x4IovmJQpk",
         "scope" : "GOOGLE",
         "types" : [ "jewelry_store", "store", "point_of_interest", "establishment" ],
         "vicinity" : "Rua Frei Manuel da Rocha, nº2 1ºEsq B, Castelo Branco"
      },
      {
         "geometry" : {
            "location" : {
               "lat" : 39.8180519,
               "lng" : -7.486414399999999
            },
            "viewport" : {
               "northeast" : {
                  "lat" : 39.8194072302915,
                  "lng" : -7.485056569708498
               },
               "southwest" : {
                  "lat" : 39.8167092697085,
                  "lng" : -7.487754530291502
               }
            }
         },
         "icon" : "https://maps.gstatic.com/mapfiles/place_api/icons/generic_business-71.png",
         "id" : "08ce2004be8c859db7b7e3d7fe51a59f4f3069d6",
         "name" : "Construtora Jerónimo Reis & Afonso Lda",
         "place_id" : "ChIJhRpFN4JePQ0RMUOECQ4XmtY",
         "plus_code" : {
            "compound_code" : "RG97+6C Castelo Branco, Portugal",
            "global_code" : "8CFJRG97+6C"
         },
         "rating" : 3.6,
         "reference" : "ChIJhRpFN4JePQ0RMUOECQ4XmtY",
         "scope" : "GOOGLE",
         "types" : [ "point_of_interest", "establishment" ],
         "vicinity" : "Avenida da Carapalha, Castelo Branco"
      },
      {
         "geometry" : {
            "location" : {
               "lat" : 39.815162,
               "lng" : -7.484885999999999
            },
            "viewport" : {
               "northeast" : {
                  "lat" : 39.8165109802915,
                  "lng" : -7.483537019708497
               },
               "southwest" : {
                  "lat" : 39.8138130197085,
                  "lng" : -7.486234980291502
               }
            }
         },
         "icon" : "https://maps.gstatic.com/mapfiles/place_api/icons/generic_business-71.png",
         "id" : "7edf327c76a924e2678a7ec4e8780e55d7139334",
         "name" : "Acustalbi - Acústica e Engenharia, Lda",
         "place_id" : "ChIJicUU74ZePQ0RAfMr9D20JIA",
         "plus_code" : {
            "compound_code" : "RG88+32 Castelo Branco, Portugal",
            "global_code" : "8CFJRG88+32"
         },
         "rating" : 5,
         "reference" : "ChIJicUU74ZePQ0RAfMr9D20JIA",
         "scope" : "GOOGLE",
         "types" : [ "general_contractor", "point_of_interest", "establishment" ],
         "vicinity" : "Avenida da Carapalha n.º5, R/C Direito, Castelo Branco"
      },
      {
         "geometry" : {
            "location" : {
               "lat" : 39.81678,
               "lng" : -7.484974299999999
            },
            "viewport" : {
               "northeast" : {
                  "lat" : 39.8181325302915,
                  "lng" : -7.483620319708496
               },
               "southwest" : {
                  "lat" : 39.8154345697085,
                  "lng" : -7.486318280291501
               }
            }
         },
         "icon" : "https://maps.gstatic.com/mapfiles/place_api/icons/generic_business-71.png",
         "id" : "03c29092ec1f68fd3ba8e947eaab4fe787608ad5",
         "name" : "Reutix-produção E Comercialização De Artigos",
         "opening_hours" : {
            "open_now" : false
         },
         "photos" : [
            {
               "height" : 313,
               "html_attributions" : [
                  "\u003ca href=\"https://maps.google.com/maps/contrib/113537423741474701197/photos\"\u003eReutix-produção E Comercialização De Artigos\u003c/a\u003e"
               ],
               "photo_reference" : "CmRaAAAAX4mtYVQDDxwRyumztovLltVRFP3PEM5n3ijN6skwv5caWgMjmwKm1y3qLYC5t92SvI8ifz4smJCg4Tya22zYnv0AN4SKwhC18FzYV49Sb8btIOGLbbXxwtL0hzaRdlOMEhCDSuKBmWbaPT1XgmqokbeNGhQ8JQOFrSkw556C0vMFvdEPsoalVg",
               "width" : 636
            }
         ],
         "place_id" : "ChIJCz8H6IdePQ0RergWfUiJ22Q",
         "rating" : 3.7,
         "reference" : "ChIJCz8H6IdePQ0RergWfUiJ22Q",
         "scope" : "GOOGLE",
         "types" : [ "electronics_store", "store", "point_of_interest", "establishment" ],
         "vicinity" : "Avenida da Carapalha 29"
      },
      {
         "geometry" : {
            "location" : {
               "lat" : 39.8174241,
               "lng" : -7.485827899999999
            },
            "viewport" : {
               "northeast" : {
                  "lat" : 39.81876158029151,
                  "lng" : -7.484495819708497
               },
               "southwest" : {
                  "lat" : 39.81606361970851,
                  "lng" : -7.487193780291502
               }
            }
         },
         "icon" : "https://maps.gstatic.com/mapfiles/place_api/icons/cafe-71.png",
         "id" : "60d1dd4b8715df8fe7e1eeab3f239d0295f5a5ce",
         "name" : "Juventude Albicastrense",
         "place_id" : "ChIJUbNVT4FePQ0RJk0LzuwWOAo",
         "plus_code" : {
            "compound_code" : "RG87+XM Castelo Branco, Portugal",
            "global_code" : "8CFJRG87+XM"
         },
         "reference" : "ChIJUbNVT4FePQ0RJk0LzuwWOAo",
         "scope" : "GOOGLE",
         "types" : [ "cafe", "food", "point_of_interest", "establishment" ],
         "vicinity" : "Avenida da Carapalha 47"
      },
      {
         "geometry" : {
            "location" : {
               "lat" : 39.81958739999999,
               "lng" : -7.4877992
            },
            "viewport" : {
               "northeast" : {
                  "lat" : 39.82094773029149,
                  "lng" : -7.486488369708496
               },
               "southwest" : {
                  "lat" : 39.81824976970849,
                  "lng" : -7.489186330291501
               }
            }
         },
         "icon" : "https://maps.gstatic.com/mapfiles/place_api/icons/civic_building-71.png",
         "id" : "9be7c7a63fd355e58c50bb724c2d4837d37ad003",
         "name" : "Segurança Social Castelo Branco",
         "opening_hours" : {
            "open_now" : false
         },
         "photos" : [
            {
               "height" : 1802,
               "html_attributions" : [
                  "\u003ca href=\"https://maps.google.com/maps/contrib/104802569947143963122/photos\"\u003eDaniel Nunes\u003c/a\u003e"
               ],
               "photo_reference" : "CmRaAAAAPtZd51EBjaMsI9vMegV-P0Y_DBtFmQUjN0G9EoM0n46UVVXeTGc993D7YJsMuN05_Y4u2cTgxEnylBx9FB8IW6ARDQItzi5ImEdo0j_RdAHdNr0k3vtDlcQRAY3hZlNfEhArrwWOY_qxhPxCjMSWYUU7GhQWtbGuyyV4ed48UmeLmASKp6zA8A",
               "width" : 2797
            }
         ],
         "place_id" : "ChIJXVFFMYJePQ0RHB73poBXNAM",
         "plus_code" : {
            "compound_code" : "RG96+RV Castelo Branco, Portugal",
            "global_code" : "8CFJRG96+RV"
         },
         "rating" : 1,
         "reference" : "ChIJXVFFMYJePQ0RHB73poBXNAM",
         "scope" : "GOOGLE",
         "types" : [ "local_government_office", "point_of_interest", "establishment" ],
         "vicinity" : "Rua da Carapalha 2, Castelo Branco"
      },
      {
         "geometry" : {
            "location" : {
               "lat" : 39.8205842,
               "lng" : -7.484966999999998
            },
            "viewport" : {
               "northeast" : {
                  "lat" : 39.8219768302915,
                  "lng" : -7.483643319708499
               },
               "southwest" : {
                  "lat" : 39.8192788697085,
                  "lng" : -7.486341280291502
               }
            }
         },
         "icon" : "https://maps.gstatic.com/mapfiles/place_api/icons/generic_business-71.png",
         "id" : "21f4b51ec9973091e06d6133ce4ee3aa3cb561f1",
         "name" : "Chambino Wedding | fotografia e vídeo",
         "opening_hours" : {
            "open_now" : true
         },
         "photos" : [
            {
               "height" : 2094,
               "html_attributions" : [
                  "\u003ca href=\"https://maps.google.com/maps/contrib/108167006132448099471/photos\"\u003eChambino Wedding | fotografia e vídeo\u003c/a\u003e"
               ],
               "photo_reference" : "CmRaAAAANMx6VNtQKLqodANAQtTeMuEvEzpcAvwEKg968tmmvonIef5guASpNZVJmu_jYh0rIVLGaQXA_UgGMcYFFDMOWE0S7wdFAP05bLSJqfYnqDS36eFI9yLkk54CqT0pFM7VEhD0KdOTisRMM_hvbLBXV36UGhS-a8AH0DekRjPJVyFhbvKjxJv4kw",
               "width" : 2319
            }
         ],
         "place_id" : "ChIJ0aZYuIFePQ0RXqUAd5nJyuU",
         "rating" : 5,
         "reference" : "ChIJ0aZYuIFePQ0RXqUAd5nJyuU",
         "scope" : "GOOGLE",
         "types" : [ "point_of_interest", "establishment" ],
         "vicinity" : "Rua Engenheiro Frederico Ulrich 18, Castelo Branco"
      },
      {
         "geometry" : {
            "location" : {
               "lat" : 39.8187446,
               "lng" : -7.489957200000001
            },
            "viewport" : {
               "northeast" : {
                  "lat" : 39.8200776802915,
                  "lng" : -7.488558369708498
               },
               "southwest" : {
                  "lat" : 39.8173797197085,
                  "lng" : -7.491256330291503
               }
            }
         },
         "icon" : "https://maps.gstatic.com/mapfiles/place_api/icons/bus-71.png",
         "id" : "17cd3b50db436aac761aed75ec80f123a072056e",
         "name" : "Rodoviária Da Beira Interior",
         "photos" : [
            {
               "height" : 3496,
               "html_attributions" : [
                  "\u003ca href=\"https://maps.google.com/maps/contrib/105782328302068276123/photos\"\u003eMiguel Pires\u003c/a\u003e"
               ],
               "photo_reference" : "CmRaAAAAaLJkaxM5-DyJ8w-n-u7xBHN81zV7cuWIGbvUqWXbNBIvqTVzuOhzbqWwJUpbSdbLlezgS1yQp1DF7rvP9GuM6yx-wxaACK2ddO_q9AQgCsnb0VZhSXKHNwV4uiud0n2gEhCY40MPX0IwNg3KXGO03MsCGhSci_YQaP8w9Xocp8GbdYqF43qhIA",
               "width" : 4656
            }
         ],
         "place_id" : "ChIJYSNnWipcPQ0RmOdp-MIeFxo",
         "plus_code" : {
            "compound_code" : "RG96+F2 Castelo Branco, Portugal",
            "global_code" : "8CFJRG96+F2"
         },
         "rating" : 1.8,
         "reference" : "ChIJYSNnWipcPQ0RmOdp-MIeFxo",
         "scope" : "GOOGLE",
         "types" : [
            "bus_station",
            "transit_station",
            "point_of_interest",
            "establishment"
         ],
         "vicinity" : "Rua Poeta João Roiz, Castelo Branco"
      },
      {
         "geometry" : {
            "location" : {
               "lat" : 39.8199366,
               "lng" : -7.4878407
            },
            "viewport" : {
               "northeast" : {
                  "lat" : 39.8212713802915,
                  "lng" : -7.486436169708499
               },
               "southwest" : {
                  "lat" : 39.8185734197085,
                  "lng" : -7.489134130291504
               }
            }
         },
         "icon" : "https://maps.gstatic.com/mapfiles/place_api/icons/generic_business-71.png",
         "id" : "9c82d404e78739e37f514afd3b800e1a7742eac0",
         "name" : "Bright Translations",
         "place_id" : "ChIJn1VD5oZePQ0R8GgTftEO9QM",
         "plus_code" : {
            "compound_code" : "RG96+XV Castelo Branco, Portugal",
            "global_code" : "8CFJRG96+XV"
         },
         "reference" : "ChIJn1VD5oZePQ0R8GgTftEO9QM",
         "scope" : "GOOGLE",
         "types" : [ "point_of_interest", "establishment" ],
         "vicinity" : "Rua da Carapalha, Castelo Branco"
      },
      {
         "geometry" : {
            "location" : {
               "lat" : 39.8204946,
               "lng" : -7.4874232
            },
            "viewport" : {
               "northeast" : {
                  "lat" : 39.8218435802915,
                  "lng" : -7.486074219708498
               },
               "southwest" : {
                  "lat" : 39.8191456197085,
                  "lng" : -7.488772180291503
               }
            }
         },
         "icon" : "https://maps.gstatic.com/mapfiles/place_api/icons/civic_building-71.png",
         "id" : "dc6644c84d4a3a9737c57fe106d0ebe7a5e3df5e",
         "name" : "Direcção Regional De Agricultura E Pescas Do Centro",
         "photos" : [
            {
               "height" : 1920,
               "html_attributions" : [
                  "\u003ca href=\"https://maps.google.com/maps/contrib/110789877273846419711/photos\"\u003eRui Rodrigues\u003c/a\u003e"
               ],
               "photo_reference" : "CmRaAAAAeBJ9cDYswdagGXIMCQvaoGVTJnUuPi14Ix-oAEnoQy06-xEga0N3WwOjZR8kHYFVWuZbN8KCdFZm5x-iSNfqtK74dvFK-oMTIEZJF_IUPyHoPmYDU6cNP0JcVvDnhKUAEhCC0DbQC4Yf2bU-wSo0Ghv9GhSxVT6mOnq6tvoybW0CO4uHYy9ceA",
               "width" : 2560
            }
         ],
         "place_id" : "ChIJO0LyPoJePQ0Rd7-8jgrEns8",
         "plus_code" : {
            "compound_code" : "RGC7+52 Castelo Branco, Portugal",
            "global_code" : "8CFJRGC7+52"
         },
         "reference" : "ChIJO0LyPoJePQ0Rd7-8jgrEns8",
         "scope" : "GOOGLE",
         "types" : [ "point_of_interest", "establishment" ],
         "vicinity" : "Rua Amado Lusitano, Lt3, Castelo Branco"
      },
      {
         "geometry" : {
            "location" : {
               "lat" : 39.82030199999999,
               "lng" : -7.487942
            },
            "viewport" : {
               "northeast" : {
                  "lat" : 39.82165098029149,
                  "lng" : -7.486593019708498
               },
               "southwest" : {
                  "lat" : 39.81895301970849,
                  "lng" : -7.489290980291503
               }
            }
         },
         "icon" : "https://maps.gstatic.com/mapfiles/place_api/icons/generic_business-71.png",
         "id" : "d6ac1626eb3a88b829cac23291ee448cd270dadd",
         "name" : "Direccâo Regional De Agricultura Da Beira Interior",
         "place_id" : "ChIJO0LyPoJePQ0Rn4ELtgWKGIw",
         "plus_code" : {
            "compound_code" : "RGC6+4R Castelo Branco, Portugal",
            "global_code" : "8CFJRGC6+4R"
         },
         "rating" : 3.7,
         "reference" : "ChIJO0LyPoJePQ0Rn4ELtgWKGIw",
         "scope" : "GOOGLE",
         "types" : [ "point_of_interest", "establishment" ],
         "vicinity" : "Rua Amato Lusitano, Lt. 3, Est.Circunv., Castelo Branco"
      },
      {
         "geometry" : {
            "location" : {
               "lat" : 39.81681349999999,
               "lng" : -7.485178399999999
            },
            "viewport" : {
               "northeast" : {
                  "lat" : 39.81818483029149,
                  "lng" : -7.483798169708497
               },
               "southwest" : {
                  "lat" : 39.8154868697085,
                  "lng" : -7.486496130291502
               }
            }
         },
         "icon" : "https://maps.gstatic.com/mapfiles/place_api/icons/shopping-71.png",
         "id" : "3727852a0572691dfeee718d8ab98faf95928882",
         "name" : "Papelaria Xapati",
         "opening_hours" : {
            "open_now" : true
         },
         "photos" : [
            {
               "height" : 2988,
               "html_attributions" : [
                  "\u003ca href=\"https://maps.google.com/maps/contrib/112785022486275602417/photos\"\u003eAlexandra Mateus\u003c/a\u003e"
               ],
               "photo_reference" : "CmRaAAAA19oB654hY99un0TMnO8NluCf8N09E3eguVkFNPQh7GltitDqJb3JJ6sokR6OOcMXD-YCeySvFM5yDilz_6_KT9orpH0K_IBye31VAI8e8HATH3GPJ7H9KFeX6AGi8rubEhD4MPkq8Fkrw40jsjhrg26mGhT1iO5m9SkPGv_7GFuLEU376BkT0w",
               "width" : 5312
            }
         ],
         "place_id" : "ChIJ24zgfvNfPQ0RvEFlnmLiDSk",
         "plus_code" : {
            "compound_code" : "RG87+PW Castelo Branco, Portugal",
            "global_code" : "8CFJRG87+PW"
         },
         "rating" : 5,
         "reference" : "ChIJ24zgfvNfPQ0RvEFlnmLiDSk",
         "scope" : "GOOGLE",
         "types" : [ "store", "point_of_interest", "establishment" ],
         "vicinity" : "Avenida da Carapalha 29 Loja 3, Castelo Branco"
      }
   ],
   "status" : "OK"
}